#BESTPOSA,USB2,0,44.5,FINESTEERING,2354,586067.000,02040000,cdba,17399;SOL_COMPUTED,SINGLE,51.07945156962,-114.13143656194,1124.0100,-16.6000,WGS84,1.5000,0.9691,2.5233,"",0.000,0.000,32,27,27,27,00,06,35,33*d23f52ad
#BESTXYZA,USB2,0,46.5,FINESTEERING,2354,586067.000,02040000,44cf,17399;SOL_COMPUTED,SINGLE,-1641806.3475,-3664907.9786,4939963.9473,1.2770,1.6221,2.3009,SOL_COMPUTED,DOPPLER_VELOCITY,-0.0238,0.0068,0.0017,0.0308,0.0403,0.0525,"",0.000,0.000,0.000,32,27,27,27,0,06,35,33*2f0a2a05
#BESTPOSA,USB2,0,45.0,FINESTEERING,2354,586068.000,02040000,cdba,17399;SOL_COMPUTED,SINGLE,51.07945086257,-114.13143781901,1124.1320,-16.6000,WGS84,1.4734,0.9501,2.5101,"",0.000,0.000,32,27,27,27,00,06,35,33*db623dbc
#BESTXYZA,USB2,0,45.0,FINESTEERING,2354,586068.000,02040000,44cf,17399;SOL_COMPUTED,SINGLE,-1641806.4843,-3664908.0683,4939963.9927,1.2343,1.5988,2.3010,SOL_COMPUTED,DOPPLER_VELOCITY,-0.0128,-0.0036,-0.0255,0.0308,0.0403,0.0525,"",0.000,0.000,0.000,32,27,27,27,0,06,35,33*8f558d49
#BESTPOSA,USB2,0,45.0,FINESTEERING,2354,586069.000,02040000,cdba,17399;SOL_COMPUTED,SINGLE,51.07945204095,-114.13143811027,1123.8733,-16.6000,WGS84,1.4507,0.9408,2.5083,"",0.000,0.000,32,27,27,27,00,06,35,33*3a8173b3
#BESTXYZA,USB2,0,45.0,FINESTEERING,2354,586069.000,02040000,44cf,17399;SOL_COMPUTED,SINGLE,-1641806.3948,-3664907.8186,4939963.8739,1.2093,1.5879,2.3016,SOL_COMPUTED,DOPPLER_VELOCITY,-0.0235,-0.0521,-0.0499,0.0308,0.0403,0.0526,"",0.000,0.000,0.000,32,27,27,27,0,06,35,33*60c4a5d8
#BESTPOSA,USB2,0,45.0,FINESTEERING,2354,586070.000,02040000,cdba,17399;SOL_COMPUTED,SINGLE,51.07945725487,-114.13148468657,1116.0225,-16.6000,WGS84,1.4514,0.9952,2.6495,"",0.000,0.000,31,26,26,26,00,06,35,33*c08e4563
#BESTXYZA,USB2,0,45.0,FINESTEERING,2354,586070.000,02040000,44cf,17399;SOL_COMPUTED,SINGLE,-1641807.1730,-3664901.5708,4939958.1302,1.2095,1.7290,2.3800,SOL_COMPUTED,DOPPLER_VELOCITY,-0.7673,0.0220,-0.0708,0.0308,0.0419,0.0536,"",0.000,0.000,0.000,31,26,26,26,0,06,35,33*c59b76ee
#BESTPOSA,USB2,0,46.0,FINESTEERING,2354,586071.000,02040000,cdba,17399;SOL_COMPUTED,SINGLE,51.07945344817,-114.13149292808,1115.6618,-16.6000,WGS84,1.5723,1.0419,2.9774,"",0.000,0.000,30,25,25,25,00,06,35,33*a82059af
#BESTXYZA,USB2,0,46.0,FINESTEERING,2354,586071.000,02040000,44cf,17399;SOL_COMPUTED,SINGLE,-1641807.7423,-3664901.4286,4939957.5835,1.2864,1.7431,2.7802,SOL_COMPUTED,DOPPLER_VELOCITY,-0.7989,0.2066,-0.2577,0.0323,0.0422,0.0587,"",0.000,0.000,0.000,30,25,25,25,0,06,35,33*18efed3b
#BESTPOSA,USB2,0,46.0,FINESTEERING,2354,586072.000,02040000,cdba,17399;SOL_COMPUTED,SINGLE,51.07945005049,-114.13150126736,1115.7257,-16.6000,WGS84,1.4785,1.0048,2.7242,"",0.000,0.000,32,27,27,26,00,06,35,33*7aff5ede
#BESTXYZA,USB2,0,46.0,FINESTEERING,2354,586072.000,02040000,44cf,17399;SOL_COMPUTED,SINGLE,-1641808.4123,-3664901.4947,4939957.3957,1.2277,1.7272,2.4752,SOL_COMPUTED,DOPPLER_VELOCITY,-0.8226,-0.0052,-0.0890,0.0318,0.0421,0.0568,"",0.000,0.000,0.000,32,27,27,26,0,06,35,33*f1da9cda
#BESTPOSA,USB2,0,46.0,FINESTEERING,2354,586073.000,02040000,cdba,17399;SOL_COMPUTED,SINGLE,51.07944853727,-114.13151464852,1115.7516,-16.6000,WGS84,1.5196,1.0221,2.8363,"",0.000,0.000,31,26,26,26,00,06,35,33*f0878d6e
#BESTXYZA,USB2,0,46.0,FINESTEERING,2354,586073.000,02040000,44cf,17399;SOL_COMPUTED,SINGLE,-1641809.3285,-3664901.2457,4939957.3101,1.2532,1.7359,2.6105,SOL_COMPUTED,DOPPLER_VELOCITY,-0.8916,0.0575,-0.4039,0.0324,0.0482,0.0583,"",0.000,0.000,0.000,31,26,26,26,0,06,35,33*563a833f
#BESTPOSA,USB2,0,47.5,FINESTEERING,2354,586074.000,02040000,cdba,17399;SOL_COMPUTED,SINGLE,51.07944476095,-114.13152648456,1116.1871,-16.6000,WGS84,1.5533,1.0468,2.8502,"",0.000,0.000,29,25,25,25,00,06,35,37*d308121b
#BESTXYZA,USB2,0,47.5,FINESTEERING,2354,586074.000,02040000,44cf,17399;SOL_COMPUTED,SINGLE,-1641810.3311,-3664901.4545,4939957.3849,1.2462,1.8671,2.5676,SOL_COMPUTED,DOPPLER_VELOCITY,-0.8020,0.0297,-0.1037,0.0324,0.0473,0.0559,"",0.000,0.000,0.000,29,25,25,25,0,06,35,37*5f986e2e
#BESTPOSA,USB2,0,45.0,FINESTEERING,2354,586075.000,02040000,cdba,17399;SOL_COMPUTED,SINGLE,51.07943909341,-114.13153226849,1116.5840,-16.6000,WGS84,1.5445,1.0317,2.8354,"",0.000,0.000,32,27,27,25,00,06,35,37*3fe483ad
#BESTXYZA,USB2,0,45.0,FINESTEERING,2354,586075.000,02040000,44cf,17399;SOL_COMPUTED,SINGLE,-1641811.0035,-3664901.9641,4939957.2975,1.2475,1.8270,2.5682,SOL_COMPUTED,DOPPLER_VELOCITY,-0.9056,0.0646,-0.2117,0.0318,0.0438,0.0570,"",0.000,0.000,0.000,32,27,27,25,0,06,35,37*ec649047
#BESTPOSA,USB2,0,43.0,FINESTEERING,2354,586076.000,02040000,cdba,17399;SOL_COMPUTED,SINGLE,51.07942470022,-114.13150147192,1125.8006,-16.6000,WGS84,1.5581,0.9906,2.6679,"",0.000,0.000,31,27,27,26,00,06,35,33*d9eb8468
#BESTXYZA,USB2,0,43.0,FINESTEERING,2354,586076.000,02040000,44cf,17399;SOL_COMPUTED,SINGLE,-1641811.9103,-3664909.2680,4939963.4621,1.2334,1.7890,2.4094,SOL_COMPUTED,DOPPLER_VELOCITY,-0.9349,0.2549,-0.3592,0.0323,0.0472,0.0559,"",0.000,0.000,0.000,31,27,27,26,0,06,35,33*cc62df36
#BESTPOSA,USB2,0,43.0,FINESTEERING,2354,586077.000,02040000,cdba,17399;SOL_COMPUTED,SINGLE,51.07942676176,-114.13152257625,1124.3116,-16.6000,WGS84,1.4936,0.9746,2.6217,"",0.000,0.000,32,27,27,26,00,06,35,33*fbe46f14
#BESTXYZA,USB2,0,43.0,FINESTEERING,2354,586077.000,02040000,44cf,17399;SOL_COMPUTED,SINGLE,-1641812.8049,-3664907.6467,4939962.4477,1.2274,1.6692,2.4003,SOL_COMPUTED,DOPPLER_VELOCITY,-0.9768,0.0230,-0.2092,0.0322,0.0451,0.0557,"",0.000,0.000,0.000,32,27,27,26,0,06,35,33*0c665c18
#BESTPOSA,USB2,0,43.5,FINESTEERING,2354,586078.000,02040000,cdba,17399;SOL_COMPUTED,SINGLE,51.07941752894,-114.13151409851,1128.4367,-16.6000,WGS84,1.4911,0.9539,2.5573,"",0.000,0.000,31,27,27,26,00,06,35,33*d40b263f
#BESTXYZA,USB2,0,43.5,FINESTEERING,2354,586078.000,02040000,44cf,17399;SOL_COMPUTED,SINGLE,-1641813.6489,-3664910.9841,4939965.0117,1.2269,1.6073,2.3631,SOL_COMPUTED,DOPPLER_VELOCITY,-0.9027,-0.0635,-0.3969,0.0300,0.0442,0.0561,"",0.000,0.000,0.000,31,27,27,26,0,06,35,33*9afdf88b
#BESTPOSA,USB2,0,43.5,FINESTEERING,2354,586079.000,02040000,cdba,17399;SOL_COMPUTED,SINGLE,51.07941925060,-114.13153876838,1126.5399,-16.6000,WGS84,1.4936,0.9662,2.5978,"",0.000,0.000,32,27,27,26,00,06,35,33*3c0881ee
#BESTXYZA,USB2,0,43.5,FINESTEERING,2354,586079.000,02040000,44cf,17399;SOL_COMPUTED,SINGLE,-1641814.6787,-3664909.0537,4939963.6563,1.2296,1.6353,2.3931,SOL_COMPUTED,DOPPLER_VELOCITY,-0.8667,0.0618,-0.4219,0.0299,0.0421,0.0552,"",0.000,0.000,0.000,32,27,27,26,0,06,35,33*2755d465
#BESTPOSA,USB2,0,39.5,FINESTEERING,2354,586080.000,02040000,cdba,17399;SOL_COMPUTED,SINGLE,51.07941943587,-114.13159890324,1115.7011,-16.6000,WGS84,1.4924,1.0187,2.7530,"",0.000,0.000,29,25,25,25,00,06,35,33*d7554e60
#BESTXYZA,USB2,0,39.5,FINESTEERING,2354,586080.000,02040000,44cf,17399;SOL_COMPUTED,SINGLE,-1641815.7348,-3664901.1015,4939955.2365,1.2283,1.7841,2.4804,SOL_COMPUTED,DOPPLER_VELOCITY,-1.0159,-0.1539,-0.1541,0.0303,0.0434,0.0571,"",0.000,0.000,0.000,29,25,25,25,0,06,35,33*ac228fdd
#BESTPOSA,USB2,0,39.5,FINESTEERING,2354,586081.000,02040000,cdba,17399;SOL_COMPUTED,SINGLE,51.07941490634,-114.13161336123,1116.0999,-16.6000,WGS84,1.4377,1.0060,2.6903,"",0.000,0.000,30,25,25,25,00,06,35,33*017073cf
#BESTXYZA,USB2,0,39.5,FINESTEERING,2354,586081.000,02040000,44cf,17399;SOL_COMPUTED,SINGLE,-1641816.9223,-3664901.2738,4939955.2301,1.2158,1.7721,2.3871,SOL_COMPUTED,DOPPLER_VELOCITY,-1.1453,-0.0759,-0.2406,0.0309,0.0472,0.0594,"",0.000,0.000,0.000,30,25,25,25,0,06,35,33*8a6c0532
#BESTPOSA,USB2,0,43.0,FINESTEERING,2354,586082.000,02040000,cdba,17399;SOL_COMPUTED,SINGLE,51.07939972010,-114.13155346624,1131.0676,-16.6000,WGS84,1.4406,0.9429,2.5182,"",0.000,0.000,31,27,27,25,00,06,35,33*f8379a7a
#BESTXYZA,USB2,0,43.0,FINESTEERING,2354,586082.000,02040000,44cf,17399;SOL_COMPUTED,SINGLE,-1641817.4730,-3664912.7714,4939965.8137,1.2257,1.5724,2.3088,SOL_COMPUTED,DOPPLER_VELOCITY,-1.0748,0.0552,-0.4045,0.0304,0.0428,0.0573,"",0.000,0.000,0.000,31,27,27,25,0,06,35,33*729d1290
#BESTPOSA,USB2,0,40.0,FINESTEERING,2354,586083.000,02040000,cdba,17399;SOL_COMPUTED,SINGLE,51.07940629317,-114.13164081161,1116.1431,-16.6000,WGS84,1.4301,0.9979,2.6813,"",0.000,0.000,32,26,26,26,00,06,35,33*611c8986
#BESTXYZA,USB2,0,40.0,FINESTEERING,2354,586083.000,02040000,44cf,17399;SOL_COMPUTED,SINGLE,-1641818.9941,-3664901.1924,4939954.6617,1.2184,1.7439,2.3884,SOL_COMPUTED,DOPPLER_VELOCITY,-1.1585,-0.0383,-0.4171,0.0302,0.0418,0.0559,"",0.000,0.000,0.000,32,26,26,26,0,06,35,33*670b16f5
#BESTPOSA,USB2,0,40.0,FINESTEERING,2354,586084.000,02040000,cdba,17399;SOL_COMPUTED,SINGLE,51.07939713604,-114.13165019794,1115.9597,-16.6000,WGS84,1.4406,1.0022,2.7124,"",0.000,0.000,31,26,26,25,00,06,35,33*15487f25
#BESTXYZA,USB2,0,40.0,FINESTEERING,2354,586084.000,02040000,44cf,17399;SOL_COMPUTED,SINGLE,-1641819.8715,-3664901.5417,4939953.8788,1.2259,1.7436,2.4278,SOL_COMPUTED,DOPPLER_VELOCITY,-0.9531,-0.1435,-0.2478,0.0302,0.0418,0.0559,"",0.000,0.000,0.000,31,26,26,25,0,06,35,33*216c7919
#BESTPOSA,USB2,0,45.0,FINESTEERING,2354,586085.000,02040000,cdba,17399;SOL_COMPUTED,SINGLE,51.07939532805,-114.13166361170,1116.0516,-16.6000,WGS84,1.4392,1.0006,2.7063,"",0.000,0.000,33,27,27,25,00,06,35,33*768164ab
#BESTXYZA,USB2,0,45.0,FINESTEERING,2354,586085.000,02040000,44cf,17399;SOL_COMPUTED,SINGLE,-1641820.8171,-3664901.3529,4939953.8240,1.2257,1.7364,2.4246,SOL_COMPUTED,DOPPLER_VELOCITY,-1.0837,0.0327,-0.4444,0.0302,0.0415,0.0531,"",0.000,0.000,0.000,33,27,27,25,0,06,35,33*6115d8cf
#BESTPOSA,USB2,0,43.5,FINESTEERING,2354,586086.000,02040000,cdba,17399;SOL_COMPUTED,SINGLE,51.07939142752,-114.13167760437,1115.9669,-16.6000,WGS84,1.4640,1.0039,2.7843,"",0.000,0.000,32,27,27,26,00,06,35,33*8b94f228
#BESTXYZA,USB2,0,43.5,FINESTEERING,2354,586086.000,02040000,44cf,17399;SOL_COMPUTED,SINGLE,-1641821.8284,-3664901.2115,4939953.4854,1.2381,1.7402,2.5184,SOL_COMPUTED,DOPPLER_VELOCITY,-0.5782,-0.0890,-0.5317,0.0299,0.0427,0.0512,"",0.000,0.000,0.000,32,27,27,26,0,06,35,33*304eb097
#BESTPOSA,USB2,0,43.5,FINESTEERING,2354,586087.000,02040000,cdba,17399;SOL_COMPUTED,SINGLE,51.07938327274,-114.13169009124,1115.5883,-16.6000,WGS84,1.4393,1.0004,2.7154,"",0.000,0.000,31,25,25,25,00,06,35,33*8a7e7ea3
#BESTXYZA,USB2,0,43.5,FINESTEERING,2354,586087.000,02040000,44cf,17399;SOL_COMPUTED,SINGLE,-1641822.8185,-3664901.2809,4939952.6208,1.2182,1.7555,2.4248,SOL_COMPUTED,DOPPLER_VELOCITY,-1.2136,-0.1419,-0.3063,0.0296,0.0420,0.0519,"",0.000,0.000,0.000,31,25,25,25,0,06,35,33*a1e8e16e
#BESTPOSA,USB2,0,44.0,FINESTEERING,2354,586088.000,02040000,cdba,17399;SOL_COMPUTED,SINGLE,51.07937746218,-114.13170474469,1116.1835,-16.6000,WGS84,1.4475,1.0038,2.7442,"",0.000,0.000,30,25,25,25,00,06,35,33*6eb210b3
#BESTXYZA,USB2,0,44.0,FINESTEERING,2354,586088.000,02040000,44cf,17399;SOL_COMPUTED,SINGLE,-1641824.1143,-3664901.6613,4939952.6777,1.2256,1.7507,2.4630,SOL_COMPUTED,DOPPLER_VELOCITY,-1.1442,-0.3313,-0.3214,0.0299,0.0433,0.0511,"",0.000,0.000,0.000,30,25,25,25,0,06,35,33*c9134e9b
#BESTPOSA,USB2,0,36.5,FINESTEERING,2354,586089.000,02040000,cdba,17399;SOL_COMPUTED,SINGLE,51.07936921551,-114.13171731773,1115.7888,-16.6000,WGS84,1.4417,0.9960,2.7231,"",0.000,0.000,32,26,26,25,00,06,35,33*c1b54434
#BESTXYZA,USB2,0,36.5,FINESTEERING,2354,586089.000,02040000,44cf,17399;SOL_COMPUTED,SINGLE,-1641825.1091,-3664901.7262,4939951.7941,1.2238,1.7311,2.4478,SOL_COMPUTED,DOPPLER_VELOCITY,-1.0434,-0.0453,-0.4232,0.0296,0.0420,0.0530,"",0.000,0.000,0.000,32,26,26,25,0,06,35,33*de684611
#BESTPOSA,USB2,0,36.5,FINESTEERING,2354,586090.000,02040000,cdba,17399;SOL_COMPUTED,SINGLE,51.07936436683,-114.13173291391,1115.5353,-16.6000,WGS84,1.4405,1.0014,2.7201,"",0.000,0.000,30,25,25,25,00,06,35,33*02f02aed
#BESTXYZA,USB2,0,36.5,FINESTEERING,2354,586090.000,02040000,44cf,17399;SOL_COMPUTED,SINGLE,-1641826.2132,-3664901.5171,4939951.2580,1.2200,1.7504,2.4340,SOL_COMPUTED,DOPPLER_VELOCITY,-1.1982,0.1277,-0.6630,0.0304,0.0442,0.0508,"",0.000,0.000,0.000,30,25,25,25,0,06,35,33*ea7aae9f
#BESTPOSA,USB2,0,39.0,FINESTEERING,2354,586091.000,02040000,cdba,17399;SOL_COMPUTED,SINGLE,51.07936293482,-114.13173753173,1115.1037,-16.6000,WGS84,1.3040,1.0899,2.5906,"",0.000,0.000,31,27,27,25,00,06,35,33*039d3f15
#BESTXYZA,USB2,0,39.0,FINESTEERING,2354,586091.000,02040000,44cf,17399;SOL_COMPUTED,SINGLE,-1641826.4484,-3664901.2504,4939950.8221,1.2185,1.8572,2.1600,SOL_COMPUTED,DOPPLER_VELOCITY,-1.1705,0.1408,-0.4687,0.0293,0.0432,0.0492,"",0.000,0.000,0.000,31,27,27,25,0,06,35,33*12a3a441
#BESTPOSA,USB2,0,42.0,FINESTEERING,2354,586092.000,02040000,cdba,17399;SOL_COMPUTED,SINGLE,51.07935980356,-114.13175739935,1113.7909,-16.6000,WGS84,1.3007,1.0852,2.5877,"",0.000,0.000,31,27,27,25,00,06,35,33*0bbfa2a3
#BESTXYZA,USB2,0,42.0,FINESTEERING,2354,586092.000,02040000,44cf,17399;SOL_COMPUTED,SINGLE,-1641827.4928,-3664900.1758,4939949.5818,1.2154,1.8548,2.1559,SOL_COMPUTED,DOPPLER_VELOCITY,-1.2619,-0.2507,-0.5188,0.0297,0.0442,0.0506,"",0.000,0.000,0.000,31,27,27,25,0,06,35,33*8f443462
#BESTPOSA,USB2,0,42.0,FINESTEERING,2354,586093.000,02040000,cdba,17399;SOL_COMPUTED,SINGLE,51.07935337262,-114.13177221642,1113.6285,-16.6000,WGS84,1.2924,1.0897,2.5801,"",0.000,0.000,30,26,26,25,00,06,35,33*2c0ab492
#BESTXYZA,USB2,0,42.0,FINESTEERING,2354,586093.000,02040000,44cf,17399;SOL_COMPUTED,SINGLE,-1641828.6265,-3664900.1661,4939949.0059,1.2147,1.8475,2.1508,SOL_COMPUTED,DOPPLER_VELOCITY,-1.1289,-0.3622,-0.4156,0.0297,0.0427,0.0504,"",0.000,0.000,0.000,30,26,26,25,0,06,35,33*859310d1
#BESTPOSA,USB2,0,46.5,FINESTEERING,2354,586094.000,02040000,cdba,17399;SOL_COMPUTED,SINGLE,51.07934277803,-114.13178238540,1113.8146,-16.6000,WGS84,1.2948,1.0951,2.5886,"",0.000,0.000,30,26,26,26,00,06,35,33*27a5224d
#BESTXYZA,USB2,0,46.5,FINESTEERING,2354,586094.000,02040000,44cf,17399;SOL_COMPUTED,SINGLE,-1641829.6997,-3664900.8185,4939948.4101,1.2169,1.8601,2.1530,SOL_COMPUTED,DOPPLER_VELOCITY,-0.9597,-0.5082,-0.6196,0.0297,0.0466,0.0511,"",0.000,0.000,0.000,30,26,26,26,0,06,35,33*939d2064
#BESTPOSA,USB2,0,48.0,FINESTEERING,2354,586095.000,02040000,cdba,17399;SOL_COMPUTED,SINGLE,51.07932533130,-114.13179484852,1116.4235,-16.6000,WGS84,1.3223,1.1264,2.6997,"",0.000,0.000,30,25,25,24,00,06,35,33*91baab0d
#BESTXYZA,USB2,0,48.0,FINESTEERING,2354,586095.000,02040000,44cf,17399;SOL_COMPUTED,SINGLE,-1641831.7845,-3664903.3355,4939949.2202,1.2839,1.8787,2.2645,SOL_COMPUTED,DOPPLER_VELOCITY,-0.8928,-0.0870,-0.7498,0.0298,0.0466,0.0512,"",0.000,0.000,0.000,30,25,25,24,0,06,35,33*45f4d56f
#BESTPOSA,USB2,0,44.5,FINESTEERING,2354,586096.000,02040000,cdba,17399;SOL_COMPUTED,SINGLE,51.07931803862,-114.13180535457,1116.4857,-16.6000,WGS84,1.4048,1.1682,2.8010,"",0.000,0.000,31,26,26,25,00,06,35,37*486fece7
#BESTXYZA,USB2,0,44.5,FINESTEERING,2354,586096.000,02040000,44cf,17399;SOL_COMPUTED,SINGLE,-1641832.7306,-3664903.6462,4939948.7589,1.2327,2.1900,2.2064,SOL_COMPUTED,DOPPLER_VELOCITY,-0.8387,-0.3258,-0.6443,0.0297,0.0445,0.0508,"",0.000,0.000,0.000,31,26,26,25,0,06,35,37*157e14fc
#BESTPOSA,USB2,0,43.0,FINESTEERING,2354,586097.000,02040000,cdba,17399;SOL_COMPUTED,SINGLE,51.07929213392,-114.13177212999,1122.0614,-16.6000,WGS84,1.3885,1.0760,2.6987,"",0.000,0.000,30,25,25,23,00,06,35,33*962c90e1
#BESTXYZA,USB2,0,43.0,FINESTEERING,2354,586097.000,02040000,44cf,17399;SOL_COMPUTED,SINGLE,-1641832.9543,-3664909.8416,4939951.2860,1.2263,2.0472,2.1619,SOL_COMPUTED,DOPPLER_VELOCITY,-1.0790,-0.5976,-0.5910,0.0298,0.0490,0.0514,"",0.000,0.000,0.000,30,25,25,23,0,06,35,33*755bd20f
#BESTPOSA,USB2,0,41.5,FINESTEERING,2354,586098.000,02040000,cdba,17399;SOL_COMPUTED,SINGLE,51.07928288676,-114.13178486322,1121.2526,-16.6000,WGS84,1.4083,1.1124,2.7680,"",0.000,0.000,30,25,25,23,00,06,35,33*17698dfb
#BESTXYZA,USB2,0,41.5,FINESTEERING,2354,586098.000,02040000,44cf,17399;SOL_COMPUTED,SINGLE,-1641833.8884,-3664909.7436,4939950.0104,1.2794,2.0302,2.2636,SOL_COMPUTED,DOPPLER_VELOCITY,-1.1443,-0.5865,-0.4405,0.0302,0.0467,0.0523,"",0.000,0.000,0.000,30,25,25,23,0,06,35,33*a2f818b7
#BESTPOSA,USB2,0,40.5,FINESTEERING,2354,586099.000,02040000,cdba,17399;SOL_COMPUTED,SINGLE,51.07922467081,-114.13173088791,1133.7817,-16.6000,WGS84,1.3219,1.0183,2.5243,"",0.000,0.000,31,26,26,22,00,06,35,33*25380ee1
#BESTXYZA,USB2,0,40.5,FINESTEERING,2354,586099.000,02040000,44cf,17399;SOL_COMPUTED,SINGLE,-1641835.7143,-3664923.0730,4939955.6886,1.2790,1.6642,2.1797,SOL_COMPUTED,DOPPLER_VELOCITY,-0.8670,-0.4116,-0.5837,0.0307,0.0452,0.0525,"",0.000,0.000,0.000,31,26,26,22,0,06,35,33*17a6e4a8
#BESTPOSA,USB2,0,40.5,FINESTEERING,2354,586100.000,02040000,cdba,17399;SOL_COMPUTED,SINGLE,51.07924726430,-114.13180265940,1124.6513,-16.6000,WGS84,1.3660,1.1631,2.7456,"",0.000,0.000,30,25,25,25,00,06,35,33*99f2f384
#BESTXYZA,USB2,0,40.5,FINESTEERING,2354,586100.000,02040000,44cf,17399;SOL_COMPUTED,SINGLE,-1641837.1604,-3664913.9966,4939950.1644,1.2508,2.0662,2.2189,SOL_COMPUTED,DOPPLER_VELOCITY,-0.9733,-0.1650,-0.6510,0.0297,0.0490,0.0513,"",0.000,0.000,0.000,30,25,25,25,0,06,35,33*3510eab1
#BESTPOSA,USB2,0,41.0,FINESTEERING,2354,586101.000,02040000,cdba,17399;SOL_COMPUTED,SINGLE,51.07924719050,-114.13182997541,1121.7782,-16.6000,WGS84,1.3128,1.0106,2.5953,"",0.000,0.000,31,27,27,26,00,06,35,37*c720cb74
#BESTXYZA,USB2,0,41.0,FINESTEERING,2354,586101.000,02040000,44cf,17399;SOL_COMPUTED,SINGLE,-1641838.1723,-3664911.5724,4939947.9239,1.1751,1.8625,2.1519,SOL_COMPUTED,DOPPLER_VELOCITY,-0.8933,-0.1656,-0.6625,0.0305,0.0512,0.0518,"",0.000,0.000,0.000,31,27,27,26,0,06,35,37*ab097bc1
#BESTPOSA,USB2,0,39.0,FINESTEERING,2354,586102.000,02040000,cdba,17399;SOL_COMPUTED,SINGLE,51.07923714743,-114.13183911306,1121.5232,-16.6000,WGS84,1.2986,0.9868,2.5472,"",0.000,0.000,33,28,28,25,00,06,35,37*f3fadf67
#BESTXYZA,USB2,0,39.0,FINESTEERING,2354,586102.000,02040000,44cf,17399;SOL_COMPUTED,SINGLE,-1641839.0468,-3664911.9578,4939947.0235,1.1598,1.8313,2.1094,SOL_COMPUTED,DOPPLER_VELOCITY,-0.8125,-0.5758,-0.4657,0.0293,0.0443,0.0490,"",0.000,0.000,0.000,33,28,28,25,0,06,35,37*775ced3d
#BESTPOSA,USB2,0,39.0,FINESTEERING,2354,586103.000,02040000,cdba,17399;SOL_COMPUTED,SINGLE,51.07919392086,-114.13177925324,1132.6666,-16.6000,WGS84,1.2506,0.9124,2.3627,"",0.000,0.000,32,28,28,26,00,06,35,33*f7e4d536
#BESTXYZA,USB2,0,39.0,FINESTEERING,2354,586103.000,02040000,44cf,17399;SOL_COMPUTED,SINGLE,-1641839.6099,-3664923.4771,4939952.6715,1.1542,1.5844,2.0338,SOL_COMPUTED,DOPPLER_VELOCITY,-0.5525,-0.5691,-0.7582,0.0289,0.0434,0.0473,"",0.000,0.000,0.000,32,28,28,26,0,06,35,33*e1d18981
#BESTPOSA,USB2,0,38.0,FINESTEERING,2354,586104.000,02040000,cdba,17399;SOL_COMPUTED,SINGLE,51.07920085541,-114.13179675331,1130.3859,-16.6000,WGS84,1.2998,0.9238,2.4092,"",0.000,0.000,32,28,28,27,00,06,35,37*d7a44073
#BESTXYZA,USB2,0,38.0,FINESTEERING,2354,586104.000,02040000,44cf,17399;SOL_COMPUTED,SINGLE,-1641839.8981,-3664921.1202,4939951.3818,1.1555,1.6937,2.0355,SOL_COMPUTED,DOPPLER_VELOCITY,-0.5714,-0.4576,-0.6879,0.0289,0.0445,0.0477,"",0.000,0.000,0.000,32,28,28,27,0,06,35,37*0bedf3a9
#BESTPOSA,USB2,0,38.0,FINESTEERING,2354,586105.000,02040000,cdba,17399;SOL_COMPUTED,SINGLE,51.07919475928,-114.13180119348,1130.6147,-16.6000,WGS84,1.2994,0.9158,2.4024,"",0.000,0.000,33,29,29,27,00,06,35,33*ddb19fcf
#BESTXYZA,USB2,0,38.0,FINESTEERING,2354,586105.000,02040000,44cf,17399;SOL_COMPUTED,SINGLE,-1641840.4566,-3664921.6057,4939951.1337,1.1539,1.6869,2.0301,SOL_COMPUTED,DOPPLER_VELOCITY,-0.7130,-0.4696,-0.5348,0.0289,0.0442,0.0479,"",0.000,0.000,0.000,33,29,29,27,0,06,35,33*c012c877
#BESTPOSA,USB2,0,40.5,FINESTEERING,2354,586106.000,02040000,cdba,17399;SOL_COMPUTED,SINGLE,51.07920434413,-114.13186101572,1121.7452,-16.6000,WGS84,1.2970,0.9754,2.5301,"",0.000,0.000,33,28,28,26,00,06,35,33*68b1cba9
#BESTXYZA,USB2,0,40.5,FINESTEERING,2354,586106.000,02040000,44cf,17399;SOL_COMPUTED,SINGLE,-1641841.6658,-3664914.0490,4939944.9031,1.1525,1.8265,2.0906,SOL_COMPUTED,DOPPLER_VELOCITY,-0.8503,-0.6032,-0.3758,0.0289,0.0455,0.0485,"",0.000,0.000,0.000,33,28,28,26,0,06,35,33*c0ed7006
#BESTPOSA,USB2,0,39.5,FINESTEERING,2354,586107.000,02040000,cdba,17399;SOL_COMPUTED,SINGLE,51.07922152456,-114.13189335404,1116.8474,-16.6000,WGS84,1.3561,1.0092,2.5990,"",0.000,0.000,33,26,26,25,00,06,35,33*76a2a95d
#BESTXYZA,USB2,0,39.5,FINESTEERING,2354,586107.000,02040000,44cf,17399;SOL_COMPUTED,SINGLE,-1641841.8682,-3664908.9569,4939942.2935,1.1531,1.9695,2.0985,SOL_COMPUTED,DOPPLER_VELOCITY,-0.7683,-0.4212,-0.6491,0.0288,0.0454,0.0480,"",0.000,0.000,0.000,33,26,26,25,0,06,35,33*7fd1ec4c
#BESTPOSA,USB2,0,36.0,FINESTEERING,2354,586108.000,02040000,cdba,17399;SOL_COMPUTED,SINGLE,51.07918951330,-114.13187727319,1121.1146,-16.6000,WGS84,1.2838,0.9587,2.4746,"",0.000,0.000,34,28,28,26,00,06,35,37*7ffc395b
#BESTXYZA,USB2,0,36.0,FINESTEERING,2354,586108.000,02040000,44cf,17399;SOL_COMPUTED,SINGLE,-1641843.0686,-3664914.3933,4939943.3758,1.1410,1.7857,2.0494,SOL_COMPUTED,DOPPLER_VELOCITY,-0.5499,-0.3937,-0.7247,0.0288,0.0447,0.0481,"",0.000,0.000,0.000,34,28,28,26,0,06,35,37*b0c45dfd
#BESTPOSA,USB2,0,36.0,FINESTEERING,2354,586109.000,02040000,cdba,17399;SOL_COMPUTED,SINGLE,51.07918194733,-114.13188340678,1120.5631,-16.6000,WGS84,1.2948,0.9835,2.5020,"",0.000,0.000,32,26,26,26,00,06,35,37*a494b5c2
#BESTXYZA,USB2,0,36.0,FINESTEERING,2354,586109.000,02040000,44cf,17399;SOL_COMPUTED,SINGLE,-1641843.5871,-3664914.4991,4939942.4178,1.1417,1.8316,2.0606,SOL_COMPUTED,DOPPLER_VELOCITY,-0.7862,-0.8811,-0.6359,0.0291,0.0466,0.0494,"",0.000,0.000,0.000,32,26,26,26,0,06,35,37*246c47ca
#BESTPOSA,USB2,0,37.5,FINESTEERING,2354,586110.000,02040000,cdba,17399;SOL_COMPUTED,SINGLE,51.07917484434,-114.13188923758,1120.1154,-16.6000,WGS84,1.2815,0.9662,2.4806,"",0.000,0.000,33,27,27,26,00,06,35,37*95403741
#BESTXYZA,USB2,0,37.5,FINESTEERING,2354,586110.000,02040000,44cf,17399;SOL_COMPUTED,SINGLE,-1641844.0965,-3664914.6364,4939941.5730,1.1415,1.7901,2.0546,SOL_COMPUTED,DOPPLER_VELOCITY,-0.5088,-0.5735,-0.6729,0.0291,0.0451,0.0487,"",0.000,0.000,0.000,33,27,27,26,0,06,35,37*37b02e7b
#BESTPOSA,USB2,0,33.5,FINESTEERING,2354,586111.000,02040000,cdba,17399;SOL_COMPUTED,SINGLE,51.07919096038,-114.13191298565,1115.4361,-16.6000,WGS84,1.3544,1.0169,2.5907,"",0.000,0.000,30,25,25,25,00,06,35,33*8635fef4
#BESTXYZA,USB2,0,33.5,FINESTEERING,2354,586111.000,02040000,44cf,17399;SOL_COMPUTED,SINGLE,-1641843.8432,-3664909.9999,4939939.0589,1.1457,1.9874,2.0779,SOL_COMPUTED,DOPPLER_VELOCITY,-0.2427,-0.8350,-0.5545,0.0297,0.0490,0.0513,"",0.000,0.000,0.000,30,25,25,25,0,06,35,33*5d47fb2e
#BESTPOSA,USB2,0,33.5,FINESTEERING,2354,586112.000,02040000,cdba,17399;SOL_COMPUTED,SINGLE,51.07918364685,-114.13192046200,1114.3970,-16.6000,WGS84,1.3594,1.0293,2.6091,"",0.000,0.000,30,25,25,25,00,06,35,33*8b08e3f3
#BESTXYZA,USB2,0,33.5,FINESTEERING,2354,586112.000,02040000,44cf,17399;SOL_COMPUTED,SINGLE,-1641844.3134,-3664909.7677,4939937.7393,1.1478,2.0076,2.0896,SOL_COMPUTED,DOPPLER_VELOCITY,-0.2952,-0.7471,-1.1518,0.0293,0.0489,0.0503,"",0.000,0.000,0.000,30,25,25,25,0,06,35,33*653a9bf8
#BESTPOSA,USB2,0,40.5,FINESTEERING,2354,586113.000,02040000,cdba,17399;SOL_COMPUTED,SINGLE,51.07914441521,-114.13188891783,1119.8022,-16.6000,WGS84,1.3112,1.0151,2.5948,"",0.000,0.000,31,26,26,25,00,06,35,37*363b49c8
#BESTXYZA,USB2,0,40.5,FINESTEERING,2354,586113.000,02040000,44cf,17399;SOL_COMPUTED,SINGLE,-1641845.0725,-3664916.8701,4939939.2022,1.1971,1.8093,2.1854,SOL_COMPUTED,DOPPLER_VELOCITY,-0.1739,-0.9257,-0.7450,0.0302,0.0467,0.0522,"",0.000,0.000,0.000,31,26,26,25,0,06,35,37*113efff5
#BESTPOSA,USB2,0,42.0,FINESTEERING,2354,586114.000,02040000,cdba,17399;SOL_COMPUTED,SINGLE,51.07916004228,-114.13191012489,1115.3560,-16.6000,WGS84,1.3648,1.0389,2.6585,"",0.000,0.000,30,25,25,24,00,06,35,33*f12a7d90
#BESTXYZA,USB2,0,42.0,FINESTEERING,2354,586114.000,02040000,44cf,17399;SOL_COMPUTED,SINGLE,-1641844.7339,-3664912.4786,4939936.8353,1.1986,1.9370,2.1957,SOL_COMPUTED,DOPPLER_VELOCITY,-0.1645,-1.1765,-0.4295,0.0307,0.0466,0.0528,"",0.000,0.000,0.000,30,25,25,24,0,06,35,33*44d67889
#BESTPOSA,USB2,0,40.5,FINESTEERING,2354,586115.000,02040000,cdba,17399;SOL_COMPUTED,SINGLE,51.07914994271,-114.13190502229,1115.5093,-16.6000,WGS84,1.3632,1.0368,2.6531,"",0.000,0.000,31,26,26,25,00,06,35,33*40d4b4d0
#BESTXYZA,USB2,0,40.5,FINESTEERING,2354,586115.000,02040000,44cf,17399;SOL_COMPUTED,SINGLE,-1641844.8044,-3664913.5106,4939936.2486,1.1997,1.9264,2.1959,SOL_COMPUTED,DOPPLER_VELOCITY,-0.2575,-1.1038,-0.5312,0.0302,0.0467,0.0523,"",0.000,0.000,0.000,31,26,26,25,0,06,35,33*77c8b96f
#BESTPOSA,USB2,0,40.5,FINESTEERING,2354,586116.000,02040000,cdba,17399;SOL_COMPUTED,SINGLE,51.07911683592,-114.13187802153,1119.5212,-16.6000,WGS84,1.3106,1.0111,2.5887,"",0.000,0.000,31,26,26,25,00,06,35,37*f0cfaee9
#BESTXYZA,USB2,0,40.5,FINESTEERING,2354,586116.000,02040000,44cf,17399;SOL_COMPUTED,SINGLE,-1641845.2795,-3664919.2000,4939937.0556,1.1984,1.7969,2.1855,SOL_COMPUTED,DOPPLER_VELOCITY,0.0128,-0.8218,-0.8507,0.0306,0.0460,0.0523,"",0.000,0.000,0.000,31,26,26,25,0,06,35,37*6d72d36a
#BESTPOSA,USB2,0,37.0,FINESTEERING,2354,586117.000,02040000,cdba,17399;SOL_COMPUTED,SINGLE,51.07910384373,-114.13186924781,1119.9352,-16.6000,WGS84,1.3091,1.0090,2.5863,"",0.000,0.000,31,26,26,24,00,06,35,37*fc1463cd
#BESTXYZA,USB2,0,37.0,FINESTEERING,2354,586117.000,02040000,44cf,17399;SOL_COMPUTED,SINGLE,-1641845.2844,-3664920.7152,4939936.4695,1.1978,1.7929,2.1844,SOL_COMPUTED,DOPPLER_VELOCITY,-0.0708,-0.8445,-0.9195,0.0306,0.0456,0.0528,"",0.000,0.000,0.000,31,26,26,24,0,06,35,37*b33701c5
#BESTPOSA,USB2,0,37.0,FINESTEERING,2354,586118.000,02040000,cdba,17399;SOL_COMPUTED,SINGLE,51.07909706969,-114.13186760035,1118.9612,-16.6000,WGS84,1.3381,1.0639,2.6106,"",0.000,0.000,30,25,25,25,00,06,35,37*f3afe475
#BESTXYZA,USB2,0,37.0,FINESTEERING,2354,586118.000,02040000,44cf,17399;SOL_COMPUTED,SINGLE,-1641845.1686,-3664920.7392,4939935.2381,1.2387,1.7950,2.2319,SOL_COMPUTED,DOPPLER_VELOCITY,-0.1846,-1.1632,-0.8106,0.0312,0.0467,0.0544,"",0.000,0.000,0.000,30,25,25,25,0,06,35,37*8e03fbc4
#BESTPOSA,USB2,0,39.5,FINESTEERING,2354,586119.000,02040000,cdba,17399;SOL_COMPUTED,SINGLE,51.07905763993,-114.13180259493,1129.3510,-16.6000,WGS84,1.2881,0.9934,2.4282,"",0.000,0.000,30,26,26,25,00,06,35,33*2ee09bd2
#BESTXYZA,USB2,0,39.5,FINESTEERING,2354,586119.000,02040000,44cf,17399;SOL_COMPUTED,SINGLE,-1641845.0747,-3664931.6739,4939940.5653,1.2381,1.5277,2.1622,SOL_COMPUTED,DOPPLER_VELOCITY,0.1692,-1.2388,-0.5562,0.0311,0.0443,0.0534,"",0.000,0.000,0.000,30,26,26,25,0,06,35,33*05eda684
#BESTPOSA,USB2,0,36.5,FINESTEERING,2354,586120.000,02040000,cdba,17399;SOL_COMPUTED,SINGLE,51.07906411738,-114.13182543951,1124.2667,-16.6000,WGS84,1.3157,1.0147,2.4772,"",0.000,0.000,29,26,26,26,00,06,35,37*1f8f098b
#BESTXYZA,USB2,0,36.5,FINESTEERING,2354,586120.000,02040000,44cf,17399;SOL_COMPUTED,SINGLE,-1641845.0008,-3664927.5926,4939937.0624,1.2401,1.6177,2.1777,SOL_COMPUTED,DOPPLER_VELOCITY,0.1896,-0.9535,-0.6019,0.0311,0.0456,0.0539,"",0.000,0.000,0.000,29,26,26,26,0,06,35,37*322194d4
#BESTPOSA,USB2,0,36.5,FINESTEERING,2354,586121.000,02040000,cdba,17399;SOL_COMPUTED,SINGLE,51.07908826080,-114.13186524324,1115.8096,-16.6000,WGS84,1.3906,1.0866,2.6572,"",0.000,0.000,28,25,25,24,00,06,35,33*83ba361e
#BESTXYZA,USB2,0,36.5,FINESTEERING,2354,586121.000,02040000,44cf,17399;SOL_COMPUTED,SINGLE,-1641844.5201,-3664919.6957,4939932.1704,1.2524,1.9000,2.2353,SOL_COMPUTED,DOPPLER_VELOCITY,0.3359,-0.9501,-0.9002,0.0312,0.0439,0.0537,"",0.000,0.000,0.000,28,25,25,24,0,06,35,33*32594bfb
#BESTPOSA,USB2,0,39.5,FINESTEERING,2354,586122.000,02040000,cdba,17399;SOL_COMPUTED,SINGLE,51.07903218449,-114.13177017867,1129.0817,-16.6000,WGS84,1.3856,1.1129,2.5315,"",0.000,0.000,28,25,25,23,00,06,35,33*9a062a5b
#BESTXYZA,USB2,0,39.5,FINESTEERING,2354,586122.000,02040000,44cf,17399;SOL_COMPUTED,SINGLE,-1641843.8330,-3664934.4595,4939938.5763,1.2875,1.7765,2.1802,SOL_COMPUTED,DOPPLER_VELOCITY,0.2071,-1.0206,-0.6897,0.0312,0.0436,0.0535,"",0.000,0.000,0.000,28,25,25,23,0,06,35,33*a59220c9
#BESTPOSA,USB2,0,39.0,FINESTEERING,2354,586123.000,02040000,cdba,17399;SOL_COMPUTED,SINGLE,51.07903996248,-114.13179853372,1125.5323,-16.6000,WGS84,1.3700,1.0914,2.5786,"",0.000,0.000,28,25,25,22,00,06,35,33*8f90541a
#BESTXYZA,USB2,0,39.0,FINESTEERING,2354,586123.000,02040000,44cf,17399;SOL_COMPUTED,SINGLE,-1641844.4597,-3664930.9974,4939936.3585,1.4033,1.6946,2.2082,SOL_COMPUTED,DOPPLER_VELOCITY,0.2592,-1.0355,-0.8606,0.0338,0.0482,0.0547,"",0.000,0.000,0.000,28,25,25,22,0,06,35,33*749e8bff
#BESTPOSA,USB2,0,38.0,FINESTEERING,2354,586124.000,02040000,cdba,17399;SOL_COMPUTED,SINGLE,51.07902747136,-114.13178777699,1125.8425,-16.6000,WGS84,1.3817,1.1255,2.6156,"",0.000,0.000,28,25,25,24,00,06,35,33*ec65d34a
#BESTXYZA,USB2,0,38.0,FINESTEERING,2354,586124.000,02040000,44cf,17399;SOL_COMPUTED,SINGLE,-1641844.2935,-3664932.4704,4939935.7267,1.4619,1.7141,2.2231,SOL_COMPUTED,DOPPLER_VELOCITY,-0.0243,-1.1605,-0.6148,0.0354,0.0444,0.0546,"",0.000,0.000,0.000,28,25,25,24,0,06,35,33*1e5b3add
#BESTPOSA,USB2,0,38.0,FINESTEERING,2354,586125.000,02040000,cdba,17399;SOL_COMPUTED,SINGLE,51.07901062877,-114.13179324982,1127.3672,-16.6000,WGS84,1.5709,1.3503,3.0028,"",0.000,0.000,26,23,23,21,00,06,35,33*db9dc3a4
#BESTXYZA,USB2,0,38.0,FINESTEERING,2354,586125.000,02040000,44cf,17399;SOL_COMPUTED,SINGLE,-1641845.6313,-3664934.5184,4939935.7355,1.9493,2.0202,2.3294,SOL_COMPUTED,DOPPLER_VELOCITY,0.1546,-0.8773,-0.5271,0.0490,0.0524,0.0581,"",0.000,0.000,0.000,26,23,23,21,0,06,35,33*e8d32e7e
#BESTPOSA,USB2,0,40.5,FINESTEERING,2354,586126.000,02040000,cdba,17399;SOL_COMPUTED,SINGLE,51.07901124295,-114.13179046271,1125.6305,-16.6000,WGS84,1.4595,1.3649,2.8734,"",0.000,0.000,28,25,25,25,00,06,35,33*b554946c
#BESTXYZA,USB2,0,40.5,FINESTEERING,2354,586126.000,02040000,44cf,17399;SOL_COMPUTED,SINGLE,-1641844.9852,-3664933.5540,4939934.4273,1.9253,1.8144,2.2914,SOL_COMPUTED,DOPPLER_VELOCITY,-0.0856,-0.7929,-0.7685,0.0421,0.0450,0.0539,"",0.000,0.000,0.000,28,25,25,25,0,06,35,33*d5daa892
#BESTPOSA,USB2,0,43.0,FINESTEERING,2354,586127.000,02040000,cdba,17399;SOL_COMPUTED,SINGLE,51.07898384246,-114.13181387488,1128.8506,-16.6000,WGS84,1.6695,1.6066,3.1703,"",0.000,0.000,28,25,25,24,00,06,35,37*389864f9
#BESTXYZA,USB2,0,43.0,FINESTEERING,2354,586127.000,02040000,44cf,17399;SOL_COMPUTED,SINGLE,-1641848.2796,-3664936.8941,4939935.0172,2.3654,2.0840,2.3410,SOL_COMPUTED,DOPPLER_VELOCITY,-0.1692,-0.9285,-0.9506,0.0446,0.0490,0.0551,"",0.000,0.000,0.000,28,25,25,24,0,06,35,37*c2791c1a
#BESTPOSA,USB2,0,43.5,FINESTEERING,2354,586128.000,02040000,cdba,17399;SOL_COMPUTED,SINGLE,51.07898288018,-114.13177952874,1125.8552,-16.6000,WGS84,1.5850,1.3072,2.8271,"",0.000,0.000,28,25,25,24,00,06,35,37*75b99179
#BESTXYZA,USB2,0,43.5,FINESTEERING,2354,586128.000,02040000,44cf,17399;SOL_COMPUTED,SINGLE,-1641845.3473,-3664936.2369,4939932.6195,1.9218,1.9686,2.1552,SOL_COMPUTED,DOPPLER_VELOCITY,-0.0673,-1.0933,-0.5110,0.0475,0.0502,0.0538,"",0.000,0.000,0.000,28,25,25,24,0,06,35,37*e92e6bce
#BESTPOSA,USB2,0,50.0,FINESTEERING,2354,586129.000,02040000,cdba,17399;SOL_COMPUTED,SINGLE,51.07896031603,-114.13178101961,1127.7577,-16.6000,WGS84,1.7661,1.4641,3.1133,"",0.000,0.000,25,24,24,23,00,06,35,37*066c70a3
#BESTXYZA,USB2,0,50.0,FINESTEERING,2354,586129.000,02040000,44cf,17399;SOL_COMPUTED,SINGLE,-1641846.7300,-3664939.0676,4939932.5223,2.2401,2.2394,2.2187,SOL_COMPUTED,DOPPLER_VELOCITY,0.3629,-1.2049,-0.5178,0.0705,0.0611,0.0587,"",0.000,0.000,0.000,25,24,24,23,0,06,35,37*ffc341ed
#BESTPOSA,USB2,0,48.0,FINESTEERING,2354,586130.000,02040000,cdba,17399;SOL_COMPUTED,SINGLE,51.07895888439,-114.13177798278,1125.9260,-16.6000,WGS84,1.8337,1.5955,3.0652,"",0.000,0.000,24,23,23,23,00,06,35,37*e904a2a5
#BESTXYZA,USB2,0,48.0,FINESTEERING,2354,586130.000,02040000,44cf,17399;SOL_COMPUTED,SINGLE,-1641846.1159,-3664938.2175,4939930.9971,2.4185,2.1922,2.1560,SOL_COMPUTED,DOPPLER_VELOCITY,0.3748,-0.7681,-0.6472,0.0546,0.0557,0.0494,"",0.000,0.000,0.000,24,23,23,23,0,06,35,37*fe4c8db9
#BESTPOSA,USB2,0,46.5,FINESTEERING,2354,586131.000,02040000,cdba,17399;SOL_COMPUTED,SINGLE,51.07895209166,-114.13177380578,1125.6020,-16.6000,WGS84,1.7939,1.3775,2.8101,"",0.000,0.000,25,24,24,23,00,06,35,37*d86fc511
#BESTXYZA,USB2,0,46.5,FINESTEERING,2354,586131.000,02040000,44cf,17399;SOL_COMPUTED,SINGLE,-1641846.0059,-3664938.6881,4939930.2701,2.1235,2.0948,2.0284,SOL_COMPUTED,DOPPLER_VELOCITY,0.4156,-0.7154,-0.6407,0.0545,0.0558,0.0491,"",0.000,0.000,0.000,25,24,24,23,0,06,35,37*fc5f816c
#BESTPOSA,USB2,0,43.0,FINESTEERING,2354,586132.000,02040000,cdba,17399;SOL_COMPUTED,SINGLE,51.07894882199,-114.13176153882,1124.6284,-16.6000,WGS84,1.7877,1.3701,2.7946,"",0.000,0.000,26,24,24,23,00,06,35,37*bae2bf5f
#BESTXYZA,USB2,0,43.0,FINESTEERING,2354,586132.000,02040000,44cf,17399;SOL_COMPUTED,SINGLE,-1641845.0869,-3664938.7398,4939929.2842,2.1101,2.0822,2.0236,SOL_COMPUTED,DOPPLER_VELOCITY,0.2052,-0.8954,-0.4439,0.0504,0.0517,0.0484,"",0.000,0.000,0.000,26,24,24,23,0,06,35,37*e87e92ac
#BESTPOSA,USB2,0,43.0,FINESTEERING,2354,586133.000,02040000,cdba,17399;SOL_COMPUTED,SINGLE,51.07894413725,-114.13174929992,1123.3831,-16.6000,WGS84,1.7844,1.3791,2.7938,"",0.000,0.000,25,23,23,23,00,06,35,37*5b600a94
#BESTXYZA,USB2,0,43.0,FINESTEERING,2354,586133.000,02040000,44cf,17399;SOL_COMPUTED,SINGLE,-1641844.1500,-3664938.7466,4939927.9878,2.1167,2.0773,2.0238,SOL_COMPUTED,DOPPLER_VELOCITY,0.0086,-0.9743,-0.2547,0.0543,0.0525,0.0502,"",0.000,0.000,0.000,25,23,23,23,0,06,35,37*0513f836
#BESTPOSA,USB2,0,43.0,FINESTEERING,2354,586134.000,02040000,cdba,17399;SOL_COMPUTED,SINGLE,51.07893999011,-114.13174442666,1122.3973,-16.6000,WGS84,1.7778,1.3644,2.7810,"",0.000,0.000,26,24,24,24,00,06,35,37*33be5e76
#BESTXYZA,USB2,0,43.0,FINESTEERING,2354,586134.000,02040000,44cf,17399;SOL_COMPUTED,SINGLE,-1641843.7318,-3664938.6486,4939926.9309,2.0976,2.0674,2.0203,SOL_COMPUTED,DOPPLER_VELOCITY,0.0301,-0.7569,-0.7368,0.0499,0.0510,0.0482,"",0.000,0.000,0.000,26,24,24,24,0,06,35,37*59fc4e35
#BESTPOSA,USB2,0,43.0,FINESTEERING,2354,586135.000,02040000,cdba,17399;SOL_COMPUTED,SINGLE,51.07893471912,-114.13173636525,1122.0434,-16.6000,WGS84,1.7376,1.3490,2.7324,"",0.000,0.000,28,24,24,24,00,06,35,33*dde367b7
#BESTXYZA,USB2,0,43.0,FINESTEERING,2354,586135.000,02040000,44cf,17399;SOL_COMPUTED,SINGLE,-1641843.3118,-3664939.0932,4939926.2871,2.0565,2.0062,2.0126,SOL_COMPUTED,DOPPLER_VELOCITY,0.1187,-0.8957,-0.8152,0.0477,0.0502,0.0482,"",0.000,0.000,0.000,28,24,24,24,0,06,35,33*524470ef
#BESTPOSA,USB2,0,44.0,FINESTEERING,2354,586136.000,02040000,cdba,17399;SOL_COMPUTED,SINGLE,51.07892823651,-114.13173195072,1121.5802,-16.6000,WGS84,1.7309,1.3466,2.7260,"",0.000,0.000,27,24,24,24,00,06,35,33*679ee27d
#BESTXYZA,USB2,0,44.0,FINESTEERING,2354,586136.000,02040000,44cf,17399;SOL_COMPUTED,SINGLE,-1641843.1399,-3664939.4663,4939925.4736,2.0503,1.9977,2.0115,SOL_COMPUTED,DOPPLER_VELOCITY,0.2058,-0.9375,-0.3813,0.0467,0.0510,0.0484,"",0.000,0.000,0.000,27,24,24,24,0,06,35,33*991ea70e
#BESTPOSA,USB2,0,42.5,FINESTEERING,2354,586137.000,02040000,cdba,17399;SOL_COMPUTED,SINGLE,51.07892442096,-114.13172342649,1120.7674,-16.6000,WGS84,1.7270,1.3454,2.7219,"",0.000,0.000,27,24,24,24,00,06,35,33*a7e1bc53
#BESTXYZA,USB2,0,42.5,FINESTEERING,2354,586137.000,02040000,44cf,17399;SOL_COMPUTED,SINGLE,-1641842.5209,-3664939.5459,4939924.5745,2.0469,1.9923,2.0105,SOL_COMPUTED,DOPPLER_VELOCITY,0.4310,-0.8026,-0.4093,0.0466,0.0510,0.0484,"",0.000,0.000,0.000,27,24,24,24,0,06,35,33*d177d345
#BESTPOSA,USB2,0,42.5,FINESTEERING,2354,586138.000,02040000,cdba,17399;SOL_COMPUTED,SINGLE,51.07891456796,-114.13171868077,1120.6700,-16.6000,WGS84,1.5280,1.1196,2.4731,"",0.000,0.000,28,25,25,25,00,06,35,33*1b4cec25
#BESTXYZA,USB2,0,42.5,FINESTEERING,2354,586138.000,02040000,44cf,17399;SOL_COMPUTED,SINGLE,-1641842.5411,-3664940.4045,4939923.8099,1.6380,1.7680,1.9737,SOL_COMPUTED,DOPPLER_VELOCITY,0.2363,-0.7512,-0.7259,0.0397,0.0466,0.0476,"",0.000,0.000,0.000,28,25,25,25,0,06,35,33*c79e38ae
#BESTPOSA,USB2,0,41.0,FINESTEERING,2354,586139.000,02040000,cdba,17399;SOL_COMPUTED,SINGLE,51.07890721196,-114.13171332120,1120.1002,-16.6000,WGS84,1.5187,1.1112,2.4657,"",0.000,0.000,29,26,26,26,00,06,35,33*b5b41c9c
#BESTXYZA,USB2,0,41.0,FINESTEERING,2354,586139.000,02040000,44cf,17399;SOL_COMPUTED,SINGLE,-1641842.3122,-3664940.8125,4939922.8524,1.6246,1.7595,1.9713,SOL_COMPUTED,DOPPLER_VELOCITY,0.2674,-0.8253,-0.5562,0.0387,0.0463,0.0475,"",0.000,0.000,0.000,29,26,26,26,0,06,35,33*38d205d4
#BESTPOSA,USB2,0,40.0,FINESTEERING,2354,586140.000,02040000,cdba,17399;SOL_COMPUTED,SINGLE,51.07889900576,-114.13170569199,1119.8362,-16.6000,WGS84,1.5078,1.1019,2.4539,"",0.000,0.000,30,27,27,26,00,06,35,33*3559c305
#BESTXYZA,USB2,0,40.0,FINESTEERING,2354,586140.000,02040000,44cf,17399;SOL_COMPUTED,SINGLE,-1641842.0469,-3664941.5282,4939922.0734,1.6060,1.7465,1.9698,SOL_COMPUTED,DOPPLER_VELOCITY,0.2571,-1.0668,-0.6409,0.0424,0.0478,0.0482,"",0.000,0.000,0.000,30,27,27,26,0,06,35,33*cc0ac05f
#BESTPOSA,USB2,0,39.0,FINESTEERING,2354,586141.000,02040000,cdba,17399;SOL_COMPUTED,SINGLE,51.07889778617,-114.13169042533,1118.8722,-16.6000,WGS84,1.2561,0.9129,2.2909,"",0.000,0.000,32,29,29,28,00,06,35,33*76aa720c
#BESTXYZA,USB2,0,39.0,FINESTEERING,2354,586141.000,02040000,44cf,17399;SOL_COMPUTED,SINGLE,-1641840.8659,-3664941.5093,4939921.2381,1.2149,1.5317,1.9588,SOL_COMPUTED,DOPPLER_VELOCITY,0.3586,-1.2389,-0.3975,0.0304,0.0399,0.0471,"",0.000,0.000,0.000,32,29,29,28,0,06,35,33*24aa9677
#BESTPOSA,USB2,0,37.0,FINESTEERING,2354,586142.000,02040000,cdba,17399;SOL_COMPUTED,SINGLE,51.07888820517,-114.13167741774,1119.8288,-16.6000,WGS84,1.2411,0.9016,2.2715,"",0.000,0.000,32,29,29,28,00,06,35,33*75b0aa95
#BESTXYZA,USB2,0,37.0,FINESTEERING,2354,586142.000,02040000,44cf,17399;SOL_COMPUTED,SINGLE,-1641840.6187,-3664943.1874,4939921.3126,1.2033,1.5094,1.9459,SOL_COMPUTED,DOPPLER_VELOCITY,-0.2884,-0.8395,-0.4996,0.0295,0.0395,0.0469,"",0.000,0.000,0.000,32,29,29,28,0,06,35,33*515c7c8f
#BESTPOSA,USB2,0,37.0,FINESTEERING,2354,586143.000,02040000,cdba,17399;SOL_COMPUTED,SINGLE,51.07888090772,-114.13166794377,1119.4407,-16.6000,WGS84,1.2344,0.8964,2.2659,"",0.000,0.000,32,29,29,28,00,06,35,33*0f9d3b95
#BESTXYZA,USB2,0,37.0,FINESTEERING,2354,586143.000,02040000,44cf,17399;SOL_COMPUTED,SINGLE,-1641840.1712,-3664943.8129,4939920.5005,1.1926,1.5037,1.9438,SOL_COMPUTED,DOPPLER_VELOCITY,0.3933,-0.8539,-0.8812,0.0295,0.0395,0.0469,"",0.000,0.000,0.000,32,29,29,28,0,06,35,33*e515ab3f
#BESTPOSA,USB2,0,37.5,FINESTEERING,2354,586144.000,02040000,cdba,17399;SOL_COMPUTED,SINGLE,51.07887277550,-114.13165980751,1119.2507,-16.6000,WGS84,1.2289,0.8918,2.2604,"",0.000,0.000,32,29,29,28,00,06,35,33*f78aaa34
#BESTXYZA,USB2,0,37.5,FINESTEERING,2354,586144.000,02040000,44cf,17399;SOL_COMPUTED,SINGLE,-1641839.8898,-3664944.5796,4939919.7842,1.1832,1.4976,1.9422,SOL_COMPUTED,DOPPLER_VELOCITY,0.4717,-0.9788,-0.6698,0.0295,0.0394,0.0469,"",0.000,0.000,0.000,32,29,29,28,0,06,35,33*55d788eb
#BESTPOSA,USB2,0,37.5,FINESTEERING,2354,586145.000,02040000,cdba,17399;SOL_COMPUTED,SINGLE,51.07886660363,-114.13164819730,1118.7544,-16.6000,WGS84,1.2250,0.8879,2.2566,"",0.000,0.000,33,29,29,28,00,06,35,33*f45d5d19
#BESTXYZA,USB2,0,37.5,FINESTEERING,2354,586145.000,02040000,44cf,17399;SOL_COMPUTED,SINGLE,-1641839.2381,-3664945.1153,4939918.9666,1.1751,1.4938,1.9414,SOL_COMPUTED,DOPPLER_VELOCITY,0.5490,-1.0177,-0.5592,0.0295,0.0394,0.0469,"",0.000,0.000,0.000,33,29,29,28,0,06,35,33*fb504288
#BESTPOSA,USB2,0,37.5,FINESTEERING,2354,586146.000,02040000,cdba,17399;SOL_COMPUTED,SINGLE,51.07886149781,-114.13163887357,1118.4740,-16.6000,WGS84,1.2217,0.8845,2.2528,"",0.000,0.000,33,29,29,29,00,06,35,33*2657686a
#BESTXYZA,USB2,0,37.5,FINESTEERING,2354,586146.000,02040000,44cf,17399;SOL_COMPUTED,SINGLE,-1641838.7504,-3664945.6251,4939918.3915,1.1680,1.4893,1.9411,SOL_COMPUTED,DOPPLER_VELOCITY,0.5093,-0.6797,-0.2174,0.0294,0.0394,0.0469,"",0.000,0.000,0.000,33,29,29,29,0,06,35,33*68b7580c
#BESTPOSA,USB2,0,37.5,FINESTEERING,2354,586147.000,02040000,cdba,17399;SOL_COMPUTED,SINGLE,51.07885441108,-114.13162952863,1118.2476,-16.6000,WGS84,1.2183,0.8815,2.2497,"",0.000,0.000,33,29,29,29,00,06,35,33*8d57d6ce
#BESTXYZA,USB2,0,37.5,FINESTEERING,2354,586147.000,02040000,44cf,17399;SOL_COMPUTED,SINGLE,-1641838.3453,-3664946.3230,4939917.7201,1.1614,1.4859,1.9405,SOL_COMPUTED,DOPPLER_VELOCITY,0.5906,-0.9080,-0.6703,0.0294,0.0394,0.0469,"",0.000,0.000,0.000,33,29,29,29,0,06,35,33*da4e7340
#BESTPOSA,USB2,0,37.5,FINESTEERING,2354,586148.000,02040000,cdba,17399;SOL_COMPUTED,SINGLE,51.07884758901,-114.13161892319,1118.0099,-16.6000,WGS84,1.2160,0.8784,2.2468,"",0.000,0.000,33,29,29,29,00,06,35,33*1291bdcb
#BESTXYZA,USB2,0,37.5,FINESTEERING,2354,586148.000,02040000,44cf,17399;SOL_COMPUTED,SINGLE,-1641837.8474,-3664947.0295,4939917.0582,1.1548,1.4835,1.9401,SOL_COMPUTED,DOPPLER_VELOCITY,0.4678,-0.7964,-0.6656,0.0294,0.0394,0.0469,"",0.000,0.000,0.000,33,29,29,29,0,06,35,33*cff15ef3
#BESTPOSA,USB2,0,37.5,FINESTEERING,2354,586149.000,02040000,cdba,17399;SOL_COMPUTED,SINGLE,51.07884127599,-114.13160950460,1117.6317,-16.6000,WGS84,1.2158,0.8764,2.2454,"",0.000,0.000,32,29,29,29,00,06,35,33*ee05cbb3
#BESTXYZA,USB2,0,37.5,FINESTEERING,2354,586149.000,02040000,44cf,17399;SOL_COMPUTED,SINGLE,-1641837.3712,-3664947.5813,4939916.3226,1.1498,1.4820,1.9415,SOL_COMPUTED,DOPPLER_VELOCITY,0.3698,-1.1490,-0.5499,0.0294,0.0394,0.0469,"",0.000,0.000,0.000,32,29,29,29,0,06,35,33*4d2babe3
#BESTPOSA,USB2,0,38.0,FINESTEERING,2354,586150.000,02040000,cdba,17399;SOL_COMPUTED,SINGLE,51.07883496893,-114.13159937345,1117.3359,-16.6000,WGS84,1.2132,0.8742,2.2430,"",0.000,0.000,32,29,29,29,00,06,35,33*c00affb6
#BESTXYZA,USB2,0,38.0,FINESTEERING,2354,586150.000,02040000,44cf,17399;SOL_COMPUTED,SINGLE,-1641836.8704,-3664948.2003,4939915.6516,1.1451,1.4793,1.9411,SOL_COMPUTED,DOPPLER_VELOCITY,0.4916,-1.0493,-0.2037,0.0294,0.0394,0.0469,"",0.000,0.000,0.000,32,29,29,29,0,06,35,33*d1f06167
#BESTPOSA,USB2,0,43.5,FINESTEERING,2354,586151.000,02040000,cdba,17399;SOL_COMPUTED,SINGLE,51.07882844041,-114.13158652936,1116.9857,-16.6000,WGS84,1.2111,0.8721,2.2407,"",0.000,0.000,32,29,29,29,00,06,35,33*cca5d5fc
#BESTXYZA,USB2,0,43.5,FINESTEERING,2354,586151.000,02040000,44cf,17399;SOL_COMPUTED,SINGLE,-1641836.1899,-3664948.8833,4939914.9228,1.1406,1.4772,1.9404,SOL_COMPUTED,DOPPLER_VELOCITY,0.4084,-0.9481,-0.5762,0.0294,0.0394,0.0469,"",0.000,0.000,0.000,32,29,29,29,0,06,35,33*8fa1b0eb
#BESTPOSA,USB2,0,43.5,FINESTEERING,2354,586152.000,02040000,cdba,17399;SOL_COMPUTED,SINGLE,51.07882119457,-114.13157577744,1116.7100,-16.6000,WGS84,1.1689,0.8703,2.2145,"",0.000,0.000,32,29,29,29,00,06,35,33*5f6349d4
#BESTXYZA,USB2,0,43.5,FINESTEERING,2354,586152.000,02040000,44cf,17399;SOL_COMPUTED,SINGLE,-1641835.6878,-3664949.6058,4939914.2017,1.1375,1.4757,1.8858,SOL_COMPUTED,DOPPLER_VELOCITY,0.5476,-0.8935,-0.7976,0.0295,0.0394,0.0484,"",0.000,0.000,0.000,32,29,29,29,0,06,35,33*892370f3
#BESTPOSA,USB2,0,42.5,FINESTEERING,2354,586153.000,02040000,cdba,17399;SOL_COMPUTED,SINGLE,51.07881364184,-114.13156681639,1116.7289,-16.6000,WGS84,1.1663,0.8679,2.2119,"",0.000,0.000,32,29,29,29,00,06,35,33*edd0f56c
#BESTXYZA,USB2,0,42.5,FINESTEERING,2354,586153.000,02040000,44cf,17399;SOL_COMPUTED,SINGLE,-1641835.3868,-3664950.4702,4939913.6885,1.1325,1.4733,1.8849,SOL_COMPUTED,DOPPLER_VELOCITY,0.3083,-0.8682,-0.6519,0.0295,0.0394,0.0483,"",0.000,0.000,0.000,32,29,29,29,0,06,35,33*dc0c8fa0
#BESTPOSA,USB2,0,42.5,FINESTEERING,2354,586154.000,02040000,cdba,17399;SOL_COMPUTED,SINGLE,51.07880676566,-114.13155637168,1116.4832,-16.6000,WGS84,1.1666,0.8675,2.2116,"",0.000,0.000,32,29,29,29,00,06,35,33*85032842
#BESTXYZA,USB2,0,42.5,FINESTEERING,2354,586154.000,02040000,44cf,17399;SOL_COMPUTED,SINGLE,-1641834.8989,-3664951.1718,4939913.0167,1.1309,1.4727,1.8860,SOL_COMPUTED,DOPPLER_VELOCITY,0.5593,-1.0338,-0.3375,0.0295,0.0395,0.0484,"",0.000,0.000,0.000,32,29,29,29,0,06,35,33*982a7e47
#BESTPOSA,USB2,0,39.0,FINESTEERING,2354,586155.000,02040000,cdba,17399;SOL_COMPUTED,SINGLE,51.07880132190,-114.13154427844,1116.0921,-16.6000,WGS84,1.2051,0.8664,2.2350,"",0.000,0.000,33,29,29,29,00,06,35,33*0d6a8566
#BESTXYZA,USB2,0,39.0,FINESTEERING,2354,586155.000,02040000,44cf,17399;SOL_COMPUTED,SINGLE,-1641834.2176,-3664951.7242,4939912.3318,1.1285,1.4718,1.9387,SOL_COMPUTED,DOPPLER_VELOCITY,0.6217,-0.7817,-0.4906,0.0297,0.0404,0.0491,"",0.000,0.000,0.000,33,29,29,29,0,06,35,33*7322b1f4
#BESTPOSA,USB2,0,39.0,FINESTEERING,2354,586156.000,02040000,cdba,17399;SOL_COMPUTED,SINGLE,51.07879627395,-114.13153426091,1115.9037,-16.6000,WGS84,1.1639,0.8659,2.2098,"",0.000,0.000,33,29,29,29,00,06,35,33*3841fe7d
#BESTXYZA,USB2,0,39.0,FINESTEERING,2354,586156.000,02040000,44cf,17399;SOL_COMPUTED,SINGLE,-1641833.7071,-3664952.3020,4939911.8324,1.1271,1.4705,1.8854,SOL_COMPUTED,DOPPLER_VELOCITY,0.6212,-0.7460,-0.5976,0.0295,0.0399,0.0471,"",0.000,0.000,0.000,33,29,29,29,0,06,35,33*d679ee7c
#BESTPOSA,USB2,0,41.0,FINESTEERING,2354,586157.000,02040000,cdba,17399;SOL_COMPUTED,SINGLE,51.07878973861,-114.13152177432,1115.8144,-16.6000,WGS84,1.1800,0.8685,2.2172,"",0.000,0.000,33,29,29,29,00,06,35,33*f69b6523
#BESTXYZA,USB2,0,41.0,FINESTEERING,2354,586157.000,02040000,44cf,17399;SOL_COMPUTED,SINGLE,-1641833.1167,-3664953.1249,4939911.3060,1.1283,1.4723,1.9031,SOL_COMPUTED,DOPPLER_VELOCITY,0.7987,-0.7272,-0.3587,0.0296,0.0402,0.0542,"",0.000,0.000,0.000,33,29,29,29,0,06,35,33*fc60d7dc
#BESTPOSA,USB2,0,40.0,FINESTEERING,2354,586158.000,02040000,cdba,17399;SOL_COMPUTED,SINGLE,51.07878540196,-114.13151236482,1116.0031,-16.6000,WGS84,1.1924,0.8709,2.2234,"",0.000,0.000,33,29,29,29,00,06,35,37*a865ca8a
#BESTXYZA,USB2,0,40.0,FINESTEERING,2354,586158.000,02040000,44cf,17399;SOL_COMPUTED,SINGLE,-1641832.7168,-3664953.8454,4939911.1497,1.1299,1.4736,1.9172,SOL_COMPUTED,DOPPLER_VELOCITY,0.4784,-1.0229,-0.2897,0.0313,0.0405,0.0498,"",0.000,0.000,0.000,33,29,29,29,0,06,35,37*8882db7a
#BESTPOSA,USB2,0,38.0,FINESTEERING,2354,586159.000,02040000,cdba,17399;SOL_COMPUTED,SINGLE,51.07877849074,-114.13149796797,1115.4509,-16.6000,WGS84,1.2174,0.8986,2.2223,"",0.000,0.000,32,28,28,28,00,06,35,33*69a934cc
#BESTXYZA,USB2,0,38.0,FINESTEERING,2354,586159.000,02040000,44cf,17399;SOL_COMPUTED,SINGLE,-1641831.8987,-3664954.4874,4939910.2370,1.1618,1.4723,1.9263,SOL_COMPUTED,DOPPLER_VELOCITY,0.6331,-0.8910,-0.3902,0.0300,0.0409,0.0490,"",0.000,0.000,0.000,32,28,28,28,0,06,35,33*ecebf00a
#BESTPOSA,USB2,0,38.0,FINESTEERING,2354,586160.000,02040000,cdba,17399;SOL_COMPUTED,SINGLE,51.07877823232,-114.13148522733,1115.7327,-16.6000,WGS84,1.1780,0.8720,2.2167,"",0.000,0.000,33,29,29,29,00,06,35,33*d96b7dc5
#BESTXYZA,USB2,0,38.0,FINESTEERING,2354,586160.000,02040000,44cf,17399;SOL_COMPUTED,SINGLE,-1641831.1652,-3664955.0344,4939910.4381,1.1366,1.4739,1.8967,SOL_COMPUTED,DOPPLER_VELOCITY,0.9355,-0.7155,-0.5750,0.0340,0.0420,0.0552,"",0.000,0.000,0.000,33,29,29,29,0,06,35,33*5bd25485
#BESTPOSA,USB2,0,40.5,FINESTEERING,2354,586161.000,02040000,cdba,17399;SOL_COMPUTED,SINGLE,51.07877452524,-114.13147251615,1115.6510,-16.6000,WGS84,1.2820,0.9352,2.2880,"",0.000,0.000,32,27,27,27,00,06,35,33*325f805f
#BESTXYZA,USB2,0,40.5,FINESTEERING,2354,586161.000,02040000,44cf,17399;SOL_COMPUTED,SINGLE,-1641830.4623,-3664955.6447,4939910.1154,1.2783,1.5512,1.9268,SOL_COMPUTED,DOPPLER_VELOCITY,0.7605,-0.6352,-0.2541,0.0337,0.0422,0.0531,"",0.000,0.000,0.000,32,27,27,27,0,06,35,33*77c28e47
#BESTPOSA,USB2,0,40.5,FINESTEERING,2354,586162.000,02040000,cdba,17399;SOL_COMPUTED,SINGLE,51.07877220329,-114.13145889331,1115.6023,-16.6000,WGS84,1.2636,0.9361,2.2968,"",0.000,0.000,33,28,28,28,00,06,35,33*aff22f12
#BESTXYZA,USB2,0,40.5,FINESTEERING,2354,586162.000,02040000,44cf,17399;SOL_COMPUTED,SINGLE,-1641829.6606,-3664956.1906,4939909.9152,1.2837,1.5575,1.9169,SOL_COMPUTED,DOPPLER_VELOCITY,0.9954,-0.6203,0.0617,0.0327,0.0408,0.0490,"",0.000,0.000,0.000,33,28,28,28,0,06,35,33*982eb3ac
#BESTPOSA,USB2,0,43.5,FINESTEERING,2354,586163.000,02040000,cdba,17399;SOL_COMPUTED,SINGLE,51.07877013568,-114.13144365322,1115.4408,-16.6000,WGS84,1.2559,0.9337,2.2940,"",0.000,0.000,33,28,28,28,00,06,35,33*04540683
#BESTXYZA,USB2,0,43.5,FINESTEERING,2354,586163.000,02040000,44cf,17399;SOL_COMPUTED,SINGLE,-1641828.7175,-3664956.6980,4939909.6451,1.2815,1.5572,1.9091,SOL_COMPUTED,DOPPLER_VELOCITY,0.8400,-0.3991,-0.1914,0.0340,0.0427,0.0477,"",0.000,0.000,0.000,33,28,28,28,0,06,35,33*76e1bd02
#BESTPOSA,USB2,0,43.5,FINESTEERING,2354,586164.000,02040000,cdba,17399;SOL_COMPUTED,SINGLE,51.07876706082,-114.13142971350,1115.2742,-16.6000,WGS84,1.2817,0.9641,2.3199,"",0.000,0.000,32,27,27,27,00,06,35,33*140377a7
#BESTXYZA,USB2,0,43.5,FINESTEERING,2354,586164.000,02040000,44cf,17399;SOL_COMPUTED,SINGLE,-1641827.8918,-3664957.2449,4939909.3005,1.3403,1.5852,1.9091,SOL_COMPUTED,DOPPLER_VELOCITY,1.1929,-0.3780,-0.0799,0.0366,0.0450,0.0484,"",0.000,0.000,0.000,32,27,27,27,0,06,35,33*cc8473df
#BESTPOSA,USB2,0,41.0,FINESTEERING,2354,586165.000,02040000,cdba,17399;SOL_COMPUTED,SINGLE,51.07876698417,-114.13141190889,1115.1383,-16.6000,WGS84,1.3081,0.9802,2.3262,"",0.000,0.000,32,27,27,27,00,06,35,33*b181b560
#BESTXYZA,USB2,0,41.0,FINESTEERING,2354,586165.000,02040000,44cf,17399;SOL_COMPUTED,SINGLE,-1641826.7208,-3664957.6832,4939909.1894,1.3732,1.5998,1.9074,SOL_COMPUTED,DOPPLER_VELOCITY,0.9348,-0.6379,0.2869,0.0362,0.0436,0.0472,"",0.000,0.000,0.000,32,27,27,27,0,06,35,33*8809f24f
#BESTPOSA,USB2,0,39.0,FINESTEERING,2354,586166.000,02040000,cdba,17399;SOL_COMPUTED,SINGLE,51.07877016041,-114.13139130098,1114.4464,-16.6000,WGS84,1.3521,0.9993,2.2625,"",0.000,0.000,31,27,27,26,00,06,35,33*6ec912b0
#BESTXYZA,USB2,0,39.0,FINESTEERING,2354,586166.000,02040000,44cf,17399;SOL_COMPUTED,SINGLE,-1641825.1125,-3664957.6261,4939908.8731,1.3569,1.5546,1.9203,SOL_COMPUTED,DOPPLER_VELOCITY,0.9184,-0.6354,-0.2142,0.0387,0.0454,0.0549,"",0.000,0.000,0.000,31,27,27,26,0,06,35,33*0d481779
#BESTPOSA,USB2,0,39.0,FINESTEERING,2354,586167.000,02040000,cdba,17399;SOL_COMPUTED,SINGLE,51.07876864099,-114.13137598325,1114.1397,-16.6000,WGS84,1.1964,0.8719,2.2298,"",0.000,0.000,33,29,29,28,00,06,35,33*817ab000
#BESTXYZA,USB2,0,39.0,FINESTEERING,2354,586167.000,02040000,44cf,17399;SOL_COMPUTED,SINGLE,-1641824.1076,-3664958.0092,4939908.5283,1.1395,1.4761,1.9199,SOL_COMPUTED,DOPPLER_VELOCITY,1.0377,-0.3309,-0.2529,0.0303,0.0400,0.0510,"",0.000,0.000,0.000,33,29,29,28,0,06,35,33*65daaa59
#BESTPOSA,USB2,0,37.0,FINESTEERING,2354,586168.000,02040000,cdba,17399;SOL_COMPUTED,SINGLE,51.07877263857,-114.13135749657,1113.7399,-16.6000,WGS84,1.1704,0.8695,2.2044,"",0.000,0.000,33,29,29,29,00,06,35,33*806f92ae
#BESTXYZA,USB2,0,37.0,FINESTEERING,2354,586168.000,02040000,44cf,17399;SOL_COMPUTED,SINGLE,-1641822.6810,-3664957.9939,4939908.4967,1.1328,1.4690,1.8826,SOL_COMPUTED,DOPPLER_VELOCITY,1.0619,-0.6484,-0.1586,0.0352,0.0434,0.0534,"",0.000,0.000,0.000,33,29,29,29,0,06,35,33*09c3b595
#BESTPOSA,USB2,0,37.0,FINESTEERING,2354,586169.000,02040000,cdba,17399;SOL_COMPUTED,SINGLE,51.07876407987,-114.13135279938,1114.0523,-16.6000,WGS84,1.1728,0.8665,2.1960,"",0.000,0.000,33,29,29,28,00,06,35,33*f24b00f4
#BESTXYZA,USB2,0,37.0,FINESTEERING,2354,586169.000,02040000,44cf,17399;SOL_COMPUTED,SINGLE,-1641822.7637,-3664958.9838,4939908.1415,1.1269,1.4634,1.8807,SOL_COMPUTED,DOPPLER_VELOCITY,0.9445,-0.6516,0.1454,0.0287,0.0394,0.0482,"",0.000,0.000,0.000,33,29,29,28,0,06,35,33*9ee116d5
#BESTPOSA,USB2,0,40.0,FINESTEERING,2354,586170.000,02040000,cdba,17399;SOL_COMPUTED,SINGLE,51.07876230881,-114.13133373719,1113.7825,-16.6000,WGS84,1.1995,0.8638,2.2094,"",0.000,0.000,33,29,29,28,00,06,35,33*bbfe0abe
#BESTXYZA,USB2,0,40.0,FINESTEERING,2354,586170.000,02040000,44cf,17399;SOL_COMPUTED,SINGLE,-1641821.5377,-3664959.5152,4939907.8077,1.1204,1.4619,1.9167,SOL_COMPUTED,DOPPLER_VELOCITY,1.1985,-0.5111,0.0245,0.0290,0.0397,0.0496,"",0.000,0.000,0.000,33,29,29,28,0,06,35,33*71adcae6
#BESTPOSA,USB2,0,40.0,FINESTEERING,2354,586171.000,02040000,cdba,17399;SOL_COMPUTED,SINGLE,51.07875947656,-114.13131469700,1113.7711,-16.6000,WGS84,1.2231,0.8689,2.2312,"",0.000,0.000,33,29,29,29,00,06,35,37*6c0bfbb3
#BESTXYZA,USB2,0,40.0,FINESTEERING,2354,586171.000,02040000,44cf,17399;SOL_COMPUTED,SINGLE,-1641820.4171,-3664960.2781,4939907.6009,1.1208,1.5134,1.9189,SOL_COMPUTED,DOPPLER_VELOCITY,1.2879,-0.2964,-0.1744,0.0308,0.0408,0.0533,"",0.000,0.000,0.000,33,29,29,29,0,06,35,37*89ade0f1
#BESTPOSA,USB2,0,40.0,FINESTEERING,2354,586172.000,02040000,cdba,17399;SOL_COMPUTED,SINGLE,51.07876052180,-114.13130089830,1113.7250,-16.6000,WGS84,1.3548,0.8752,2.3153,"",0.000,0.000,33,29,29,29,00,06,35,37*6ec6ef41
#BESTXYZA,USB2,0,40.0,FINESTEERING,2354,586172.000,02040000,44cf,17399;SOL_COMPUTED,SINGLE,-1641819.4856,-3664960.5645,4939907.6381,1.1263,1.5156,2.0968,SOL_COMPUTED,DOPPLER_VELOCITY,1.1191,-0.1492,-0.1647,0.0291,0.0414,0.0557,"",0.000,0.000,0.000,33,29,29,29,0,06,35,37*88e26a3d
#BESTPOSA,USB2,0,40.5,FINESTEERING,2354,586173.000,02040000,cdba,17399;SOL_COMPUTED,SINGLE,51.07876127960,-114.13128170645,1112.6260,-16.6000,WGS84,1.3534,0.8819,2.3426,"",0.000,0.000,32,28,28,26,00,06,35,33*090e69f8
#BESTXYZA,USB2,0,40.5,FINESTEERING,2354,586173.000,02040000,44cf,17399;SOL_COMPUTED,SINGLE,-1641817.9489,-3664960.4245,4939906.8360,1.1387,1.4693,2.1545,SOL_COMPUTED,DOPPLER_VELOCITY,1.0137,-0.5352,0.0652,0.0296,0.0396,0.0584,"",0.000,0.000,0.000,32,28,28,26,0,06,35,33*ec7c8b8f
#BESTPOSA,USB2,0,39.5,FINESTEERING,2354,586174.000,02040000,cdba,17399;SOL_COMPUTED,SINGLE,51.07878952881,-114.13127404637,1116.5465,-16.6000,WGS84,1.2154,0.8873,2.2491,"",0.000,0.000,33,29,29,28,00,06,35,37*88d457f0
#BESTXYZA,USB2,0,39.5,FINESTEERING,2354,586174.000,02040000,44cf,17399;SOL_COMPUTED,SINGLE,-1641817.4661,-3664960.6600,4939911.8610,1.1398,1.5140,1.9317,SOL_COMPUTED,DOPPLER_VELOCITY,0.8829,-0.2977,0.1472,0.0291,0.0403,0.0555,"",0.000,0.000,0.000,33,29,29,28,0,06,35,37*509f5f91
#BESTPOSA,USB2,0,39.5,FINESTEERING,2354,586175.000,02040000,cdba,17399;SOL_COMPUTED,SINGLE,51.07876311979,-114.13125823141,1112.7787,-16.6000,WGS84,1.3806,0.8866,2.3551,"",0.000,0.000,32,28,28,28,00,06,35,37*80097c5a
#BESTXYZA,USB2,0,39.5,FINESTEERING,2354,586175.000,02040000,44cf,17399;SOL_COMPUTED,SINGLE,-1641816.4214,-3664961.0393,4939907.0835,1.1387,1.5152,2.1555,SOL_COMPUTED,DOPPLER_VELOCITY,0.8831,-0.2502,0.1462,0.0303,0.0420,0.0612,"",0.000,0.000,0.000,32,28,28,28,0,06,35,37*e46a0702
#BESTPOSA,USB2,0,36.0,FINESTEERING,2354,586176.000,02040000,cdba,17399;SOL_COMPUTED,SINGLE,51.07880189410,-114.13125864004,1117.8512,-16.6000,WGS84,1.2373,0.9352,2.3172,"",0.000,0.000,33,29,29,28,00,06,35,37*fa0f3c15
#BESTXYZA,USB2,0,36.0,FINESTEERING,2354,586176.000,02040000,44cf,17399;SOL_COMPUTED,SINGLE,-1641816.3781,-3664960.8726,4939913.7405,1.1871,1.5127,2.0193,SOL_COMPUTED,DOPPLER_VELOCITY,0.9848,-0.1797,0.0352,0.0303,0.0415,0.0734,"",0.000,0.000,0.000,33,29,29,28,0,06,35,37*d4b0a33b
#BESTPOSA,USB2,0,36.0,FINESTEERING,2354,586177.000,02040000,cdba,17399;SOL_COMPUTED,SINGLE,51.07878101882,-114.13124573186,1115.0530,-16.6000,WGS84,1.3987,0.8877,2.3503,"",0.000,0.000,31,28,28,28,00,06,35,37*647baadb
#BESTXYZA,USB2,0,36.0,FINESTEERING,2354,586177.000,02040000,44cf,17399;SOL_COMPUTED,SINGLE,-1641815.5725,-3664961.2874,4939910.1042,1.1403,1.5185,2.1592,SOL_COMPUTED,DOPPLER_VELOCITY,1.1655,-0.3579,0.1902,0.0302,0.0419,0.0603,"",0.000,0.000,0.000,31,28,28,28,0,06,35,37*f5a388bd
#BESTPOSA,USB2,0,38.5,FINESTEERING,2354,586178.000,02040000,cdba,17399;SOL_COMPUTED,SINGLE,51.07878634377,-114.13121878115,1114.0827,-16.6000,WGS84,1.2652,0.8968,2.2742,"",0.000,0.000,33,29,29,28,00,06,35,37*d13c3ec3
#BESTXYZA,USB2,0,38.5,FINESTEERING,2354,586178.000,02040000,44cf,17399;SOL_COMPUTED,SINGLE,-1641813.4109,-3664961.0826,4939909.7214,1.1466,1.5173,1.9899,SOL_COMPUTED,DOPPLER_VELOCITY,0.9446,-0.1256,0.3458,0.0329,0.0429,0.0825,"",0.000,0.000,0.000,33,29,29,28,0,06,35,37*a6036c41
#BESTPOSA,USB2,0,39.0,FINESTEERING,2354,586179.000,02040000,cdba,17399;SOL_COMPUTED,SINGLE,51.07879144435,-114.13120652917,1113.4109,-16.6000,WGS84,1.3403,0.9552,2.3782,"",0.000,0.000,31,28,28,26,00,06,35,37*feaa7871
#BESTXYZA,USB2,0,39.0,FINESTEERING,2354,586179.000,02040000,44cf,17399;SOL_COMPUTED,SINGLE,-1641812.2742,-3664960.6456,4939909.5553,1.1938,1.5856,2.1037,SOL_COMPUTED,DOPPLER_VELOCITY,0.9156,0.1091,0.1420,0.0315,0.0432,0.0687,"",0.000,0.000,0.000,31,28,28,26,0,06,35,37*333c1bf5
#BESTPOSA,USB2,0,39.5,FINESTEERING,2354,586180.000,02040000,cdba,17399;SOL_COMPUTED,SINGLE,51.07881612424,-114.13119630096,1115.1853,-16.6000,WGS84,1.2576,0.9127,2.2819,"",0.000,0.000,30,27,27,27,00,06,35,33*49c0838c
#BESTXYZA,USB2,0,39.5,FINESTEERING,2354,586180.000,02040000,44cf,17399;SOL_COMPUTED,SINGLE,-1641811.2022,-3664960.0062,4939912.6611,1.1478,1.6024,1.9331,SOL_COMPUTED,DOPPLER_VELOCITY,0.9125,-0.0035,0.3182,0.0306,0.0430,0.0585,"",0.000,0.000,0.000,30,27,27,27,0,06,35,33*5de9fb1f
#BESTPOSA,USB2,0,40.0,FINESTEERING,2354,586181.000,02040000,cdba,17399;SOL_COMPUTED,SINGLE,51.07878785587,-114.13117905372,1116.0524,-16.6000,WGS84,1.3924,0.8681,2.3212,"",0.000,0.000,29,27,27,25,00,06,35,37*b979b6e3
#BESTXYZA,USB2,0,40.0,FINESTEERING,2354,586181.000,02040000,44cf,17399;SOL_COMPUTED,SINGLE,-1641811.3222,-3664963.2309,4939911.3596,1.0949,1.5457,2.1195,SOL_COMPUTED,DOPPLER_VELOCITY,1.1497,-0.2074,0.4236,0.0298,0.0450,0.0607,"",0.000,0.000,0.000,29,27,27,25,0,06,35,37*0d85184f
#BESTPOSA,USB2,0,40.0,FINESTEERING,2354,586182.000,02040000,cdba,17399;SOL_COMPUTED,SINGLE,51.07878985477,-114.13113450015,1122.0557,-16.6000,WGS84,1.2833,0.8840,2.2972,"",0.000,0.000,30,28,28,27,00,06,35,33*d031ae1c
#BESTXYZA,USB2,0,40.0,FINESTEERING,2354,586182.000,02040000,44cf,17399;SOL_COMPUTED,SINGLE,-1641809.9434,-3664967.7916,4939916.1700,1.0955,1.6435,1.9505,SOL_COMPUTED,DOPPLER_VELOCITY,1.1032,-0.1371,0.2169,0.0302,0.0456,0.0670,"",0.000,0.000,0.000,30,28,28,27,0,06,35,33*440982bb
#BESTPOSA,USB2,0,42.5,FINESTEERING,2354,586183.000,02040000,cdba,17399;SOL_COMPUTED,SINGLE,51.07881214896,-114.13116303886,1114.2622,-16.6000,WGS84,1.4432,0.8810,2.3549,"",0.000,0.000,28,26,26,26,00,06,35,33*6a01324b
#BESTXYZA,USB2,0,42.5,FINESTEERING,2354,586183.000,02040000,44cf,17399;SOL_COMPUTED,SINGLE,-1641808.9782,-3664960.7441,4939911.6650,1.0979,1.6321,2.1297,SOL_COMPUTED,DOPPLER_VELOCITY,1.1920,-0.0897,-0.0196,0.0327,0.0501,0.0659,"",0.000,0.000,0.000,28,26,26,26,0,06,35,33*07f15976
#BESTPOSA,USB2,0,43.5,FINESTEERING,2354,586184.000,02040000,cdba,17399;SOL_COMPUTED,SINGLE,51.07878767665,-114.13109562633,1120.1513,-16.6000,WGS84,1.4695,0.9069,2.4293,"",0.000,0.000,28,26,26,26,00,06,35,37*168231f0
#BESTXYZA,USB2,0,43.5,FINESTEERING,2354,586184.000,02040000,44cf,17399;SOL_COMPUTED,SINGLE,-1641807.0448,-3664967.9857,4939914.5360,1.1058,1.6762,2.2024,SOL_COMPUTED,DOPPLER_VELOCITY,1.0302,-0.2167,0.3240,0.0317,0.0497,0.0632,"",0.000,0.000,0.000,28,26,26,26,0,06,35,37*5914da13
#BESTPOSA,USB2,0,46.0,FINESTEERING,2354,586185.000,02040000,cdba,17399;SOL_COMPUTED,SINGLE,51.07879690207,-114.13110244392,1114.6643,-16.6000,WGS84,1.5401,1.0152,2.8515,"",0.000,0.000,26,24,24,23,00,06,35,33*611369b6
#BESTXYZA,USB2,0,46.0,FINESTEERING,2354,586185.000,02040000,44cf,17399;SOL_COMPUTED,SINGLE,-1641805.7451,-3664963.9156,4939910.9120,1.1491,1.9451,2.5357,SOL_COMPUTED,DOPPLER_VELOCITY,0.9642,-0.0351,0.4089,0.0304,0.0521,0.0636,"",0.000,0.000,0.000,26,24,24,23,0,06,35,33*721bd077
#BESTPOSA,USB2,0,40.0,FINESTEERING,2354,586186.000,02040000,cdba,17399;SOL_COMPUTED,SINGLE,51.07878194827,-114.13107210055,1117.9123,-16.6000,WGS84,1.5758,1.0132,2.7218,"",0.000,0.000,29,26,26,23,00,06,35,37*ff5b24cb
#BESTXYZA,USB2,0,40.0,FINESTEERING,2354,586186.000,02040000,44cf,17399;SOL_COMPUTED,SINGLE,-1641805.1676,-3664967.8287,4939912.3937,1.1677,1.8431,2.4814,SOL_COMPUTED,DOPPLER_VELOCITY,1.0621,-0.0020,0.1894,0.0336,0.0519,0.0608,"",0.000,0.000,0.000,29,26,26,23,0,06,35,37*711f23fa
